{"type":"FeatureCollection","features":[
{"type":"Feature","geometry":{"type":"Point","coordinates":[-118.24369999999999,34.05220000000003]},"properties":{"id":1,"city":"Los Angeles","latitude":34.0522,"longitude":-118.2437,"pop60":2.48,"pop70":2.81,"pop80":2.97,"pop90":3.49,"pop00":3.69,"pop10":3.79,"pop20":3.90}},
{"type":"Feature","geometry":{"type":"Point","coordinates":[-96.92089999999996,32.70790000000005]},"properties":{"id":2,"city":"Dallas-Fort Worth","latitude":32.7079,"longitude":-96.9209,"pop60":1.08,"pop70":1.56,"pop80":2.97,"pop90":3.89,"pop00":5.16,"pop10":6.37,"pop20":7.64}},
{"type":"Feature","geometry":{"type":"Point","coordinates":[-95.36979999999994,29.76040000000006]},"properties":{"id":3,"city":"Houston","latitude":29.7604,"longitude":-95.3698,"pop60":0.93,"pop70":1.23,"pop80":1.60,"pop90":1.63,"pop00":1.95,"pop10":2.10,"pop20":2.30}},
{"type":"Feature","geometry":{"type":"Point","coordinates":[-80.19179999999994,25.761700000000076]},"properties":{"id":4,"city":"Miami","latitude":25.7617,"longitude":-80.1918,"pop60":0.29,"pop70":0.33,"pop80":0.35,"pop90":0.36,"pop00":0.36,"pop10":0.40,"pop20":0.44}},
{"type":"Feature","geometry":{"type":"Point","coordinates":[-84.38799999999998,33.749000000000024]},"properties":{"id":5,"city":"Atlanta","latitude":33.749,"longitude":-84.388,"pop60":0.76,"pop70":1.18,"pop80":1.62,"pop90":2.18,"pop00":3.52,"pop10":4.54,"pop20":5.80}},
{"type":"Feature","geometry":{"type":"Point","coordinates":[-112.07399999999996,33.44840000000005]},"properties":{"id":6,"city":"Phoenix","latitude":33.4484,"longitude":-112.074,"pop60":0.44,"pop70":0.58,"pop80":0.79,"pop90":0.98,"pop00":1.32,"pop10":1.45,"pop20":1.61}},
{"type":"Feature","geometry":{"type":"Point","coordinates":[-122.41939999999994,37.77490000000006]},"properties":{"id":7,"city":"San Francisco","latitude":37.7749,"longitude":-122.4194,"pop60":0.74,"pop70":0.71,"pop80":0.68,"pop90":0.72,"pop00":0.78,"pop10":0.81,"pop20":0.87}},
{"type":"Feature","geometry":{"type":"Point","coordinates":[-116.41939999999994,34.95920000000007]},"properties":{"id":8,"city":"Riverside-San Bernadino","latitude":34.9592,"longitude":-116.4194,"pop60":0.81,"pop70":1.14,"pop80":1.56,"pop90":2.59,"pop00":3.25,"pop10":4.22,"pop20":4.60}},
{"type":"Feature","geometry":{"type":"Point","coordinates":[-117.16109999999998,32.71570000000003]},"properties":{"id":9,"city":"San Diego","latitude":32.7157,"longitude":-117.1611,"pop60":573224,"pop70":0.70,"pop80":0.88,"pop90":1.11,"pop00":1.22,"pop10":1.31,"pop20":1.39}},
{"type":"Feature","geometry":{"type":"Point","coordinates":[-82.45719999999994,27.950600000000065]},"properties":{"id":10,"city":"Tampa","latitude":27.9506,"longitude":-82.4572,"pop60":0.27,"pop70":0.28,"pop80":0.27,"pop90":0.28,"pop00":0.30,"pop10":0.34,"pop20":0.39}},
{"type":"Feature","geometry":{"type":"Point","coordinates":[-80.84309999999994,35.227100000000064]},"properties":{"id":11,"city":"Charlotte","latitude":35.2271,"longitude":-80.8431,"pop60":201564,"pop70":241420,"pop80":315474,"pop90":395934,"pop00":540828,"pop10":731424,"pop20":874579}},
{"type":"Feature","geometry":{"type":"Point","coordinates":[-81.37889999999999,28.538400000000024]},"properties":{"id":12,"city":"Orlando","latitude":28.5384,"longitude":-81.3789,"pop60":0.09,"pop70":0.10,"pop80":0.13,"pop90":0.16,"pop00":0.19,"pop10":0.24,"pop20":0.31}},
{"type":"Feature","geometry":{"type":"Point","coordinates":[-98.49459999999999,29.425200000000075]},"properties":{"id":13,"city":"San Antonio","latitude":29.4252,"longitude":-98.4946,"pop60":0.59,"pop70":0.65,"pop80":0.79,"pop90":0.94,"pop00":1.14,"pop10":1.33,"pop20":1.43}},
{"type":"Feature","geometry":{"type":"Point","coordinates":[-121.49439999999998,38.58160000000004]},"properties":{"id":14,"city":"Sacramento","latitude":38.5816,"longitude":-121.4944,"pop60":0.19,"pop70":0.26,"pop80":0.28,"pop90":0.37,"pop00":0.41,"pop10":0.47,"pop20":0.52}},
{"type":"Feature","geometry":{"type":"Point","coordinates":[-115.13909999999998,36.17160000000007]},"properties":{"id":15,"city":"Las Vegas","latitude":36.1716,"longitude":-115.1391,"pop60":0.06,"pop70":0.13,"pop80":0.17,"pop90":0.26,"pop00":0.48,"pop10":0.58,"pop20":0.64}}]}