{"type":"FeatureCollection","features":[{"type":"Feature","geometry":{"type":"Point","coordinates":[-118.24369999999999,34.05220000000003]},"properties":{"id":1,"city":"Los Angeles","latitude":34.0522,"longitude":-118.2437,"pop60":2479015,"pop70":2811801,"pop80":2968528,"pop90":3485398,"pop00":3694820,"pop10":3792621,"pop20":3898747}},{"type":"Feature","geometry":{"type":"Point","coordinates":[-96.92089999999996,32.70790000000005]},"properties":{"id":2,"city":"Dallas-Fort Worth","latitude":32.7079,"longitude":-96.9209,"pop60":1083601,"pop70":1555950,"pop80":2974805,"pop90":3885415,"pop00":5161544,"pop10":6371773,"pop20":7637387}},{"type":"Feature","geometry":{"type":"Point","coordinates":[-95.36979999999994,29.76040000000006]},"properties":{"id":3,"city":"Houston","latitude":29.7604,"longitude":-95.3698,"pop60":938219,"pop70":1232802,"pop80":1595138,"pop90":1630553,"pop00":1953631,"pop10":2100263,"pop20":2304580}},{"type":"Feature","geometry":{"type":"Point","coordinates":[-80.19179999999994,25.761700000000076]},"properties":{"id":4,"city":"Miami","latitude":25.7617,"longitude":-80.1918,"pop60":291668,"pop70":334859,"pop80":346681,"pop90":358548,"pop00":362470,"pop10":399457,"pop20":442241}},{"type":"Feature","geometry":{"type":"Point","coordinates":[-84.38799999999998,33.749000000000024]},"properties":{"id":5,"city":"Atlanta","latitude":33.749,"longitude":-84.388,"pop60":487455,"pop70":495039,"pop80":425022,"pop90":394017,"pop00":416474,"pop10":420003,"pop20":498715}},{"type":"Feature","geometry":{"type":"Point","coordinates":[-112.07399999999996,33.44840000000005]},"properties":{"id":6,"city":"Phoenix","latitude":33.4484,"longitude":-112.074,"pop60":439170,"pop70":581572,"pop80":789704,"pop90":983403,"pop00":1321045,"pop10":1445632,"pop20":1608139}},{"type":"Feature","geometry":{"type":"Point","coordinates":[-122.41939999999994,37.77490000000006]},"properties":{"id":7,"city":"San Francisco","latitude":37.7749,"longitude":-122.4194,"pop60":740316,"pop70":715674,"pop80":678974,"pop90":723959,"pop00":776773,"pop10":805235,"pop20":873965}},{"type":"Feature","geometry":{"type":"Point","coordinates":[-116.41939999999994,34.95920000000007]},"properties":{"id":8,"city":"Riverside-San Bernadino","latitude":34.9592,"longitude":-116.4194,"pop60":809782,"pop70":1143146,"pop80":1558182,"pop90":2588793,"pop00":3254821,"pop10":4224851,"pop20":4599839}},{"type":"Feature","geometry":{"type":"Point","coordinates":[-117.16109999999998,32.71570000000003]},"properties":{"id":9,"city":"San Diego","latitude":32.7157,"longitude":-117.1611,"pop60":573224,"pop70":696769,"pop80":875538,"pop90":1110549,"pop00":1223400,"pop10":1307402,"pop20":1386932}},{"type":"Feature","geometry":{"type":"Point","coordinates":[-82.45719999999994,27.950600000000065]},"properties":{"id":10,"city":"Tampa","latitude":27.9506,"longitude":-82.4572,"pop60":274970,"pop70":277714,"pop80":271523,"pop90":280015,"pop00":303447,"pop10":335709,"pop20":384959}},{"type":"Feature","geometry":{"type":"Point","coordinates":[-80.84309999999994,35.227100000000064]},"properties":{"id":11,"city":"Charlotte","latitude":35.2271,"longitude":-80.8431,"pop60":201564,"pop70":241420,"pop80":315474,"pop90":395934,"pop00":540828,"pop10":731424,"pop20":874579}},{"type":"Feature","geometry":{"type":"Point","coordinates":[-81.37889999999999,28.538400000000024]},"properties":{"id":12,"city":"Orlando","latitude":28.5384,"longitude":-81.3789,"pop60":88135,"pop70":99006,"pop80":128251,"pop90":164693,"pop00":185951,"pop10":238300,"pop20":307573}},{"type":"Feature","geometry":{"type":"Point","coordinates":[-98.49459999999999,29.425200000000075]},"properties":{"id":13,"city":"San Antonio","latitude":29.4252,"longitude":-98.4946,"pop60":587718,"pop70":654153,"pop80":785940,"pop90":935933,"pop00":1144646,"pop10":1327407,"pop20":1434625}},{"type":"Feature","geometry":{"type":"Point","coordinates":[-121.49439999999998,38.58160000000004]},"properties":{"id":14,"city":"Sacramento","latitude":38.5816,"longitude":-121.4944,"pop60":191667,"pop70":257105,"pop80":275741,"pop90":369365,"pop00":407018,"pop10":466488,"pop20":524943}},{"type":"Feature","geometry":{"type":"Point","coordinates":[-115.13909999999998,36.17160000000007]},"properties":{"id":15,"city":"Las Vegas","latitude":36.1716,"longitude":-115.1391,"pop60":64405,"pop70":125674,"pop80":164674,"pop90":258295,"pop00":478434,"pop10":583756,"pop20":641903}}]}