{"type":"FeatureCollection","features":[
{"type":"Feature","geometry":{"type":"Point","coordinates":[-118.24369999999999,34.05220000000003]},"properties":{"id":1,"city":"Los Angeles","latitude":34.0522,"longitude":-118.2437,"pop_1960":2.48,"pop_1970":2.81,"pop_1980":2.97,"pop_1990":3.49,"pop_2000":3.69,"pop_2010":3.79,"pop_2020":3.90}},
{"type":"Feature","geometry":{"type":"Point","coordinates":[-96.92089999999996,32.70790000000005]},"properties":{"id":2,"city":"Dallas-Fort Worth","latitude":32.7079,"longitude":-96.9209,"pop_1960":1.08,"pop_1970":1.56,"pop_1980":2.97,"pop_1990":3.89,"pop_2000":5.16,"pop_2010":6.37,"pop_2020":7.64}},
{"type":"Feature","geometry":{"type":"Point","coordinates":[-95.36979999999994,29.76040000000006]},"properties":{"id":3,"city":"Houston","latitude":29.7604,"longitude":-95.3698,"pop_1960":0.93,"pop_1970":1.23,"pop_1980":1.60,"pop_1990":1.63,"pop_2000":1.95,"pop_2010":2.10,"pop_2020":2.30}},
{"type":"Feature","geometry":{"type":"Point","coordinates":[-80.19179999999994,25.761700000000076]},"properties":{"id":4,"city":"Miami","latitude":25.7617,"longitude":-80.1918,"pop_1960":0.29,"pop_1970":0.33,"pop_1980":0.35,"pop_1990":0.36,"pop_2000":0.36,"pop_2010":0.40,"pop_2020":0.44}},
{"type":"Feature","geometry":{"type":"Point","coordinates":[-84.38799999999998,33.749000000000024]},"properties":{"id":5,"city":"Atlanta","latitude":33.749,"longitude":-84.388,"pop_1960":0.76,"pop_1970":1.18,"pop_1980":1.62,"pop_1990":2.18,"pop_2000":3.52,"pop_2010":4.54,"pop_2020":5.80}},
{"type":"Feature","geometry":{"type":"Point","coordinates":[-112.07399999999996,33.44840000000005]},"properties":{"id":6,"city":"Phoenix","latitude":33.4484,"longitude":-112.074,"pop_1960":0.44,"pop_1970":0.58,"pop_1980":0.79,"pop_1990":0.98,"pop_2000":1.32,"pop_2010":1.45,"pop_2020":1.61}},
{"type":"Feature","geometry":{"type":"Point","coordinates":[-122.41939999999994,37.77490000000006]},"properties":{"id":7,"city":"San Francisco","latitude":37.7749,"longitude":-122.4194,"pop_1960":0.74,"pop_1970":0.71,"pop_1980":0.68,"pop_1990":0.72,"pop_2000":0.78,"pop_2010":0.81,"pop_2020":0.87}},
{"type":"Feature","geometry":{"type":"Point","coordinates":[-116.41939999999994,34.95920000000007]},"properties":{"id":8,"city":"Riverside-San Bernadino","latitude":34.9592,"longitude":-116.4194,"pop_1960":0.81,"pop_1970":1.14,"pop_1980":1.56,"pop_1990":2.59,"pop_2000":3.25,"pop_2010":4.22,"pop_2020":4.60}},
{"type":"Feature","geometry":{"type":"Point","coordinates":[-117.16109999999998,32.71570000000003]},"properties":{"id":9,"city":"San Diego","latitude":32.7157,"longitude":-117.1611,"pop_1960":573224,"pop_1970":0.70,"pop_1980":0.88,"pop_1990":1.11,"pop_2000":1.22,"pop_2010":1.31,"pop_2020":1.39}},
{"type":"Feature","geometry":{"type":"Point","coordinates":[-82.45719999999994,27.950600000000065]},"properties":{"id":10,"city":"Tampa","latitude":27.9506,"longitude":-82.4572,"pop_1960":0.27,"pop_1970":0.28,"pop_1980":0.27,"pop_1990":0.28,"pop_2000":0.30,"pop_2010":0.34,"pop_2020":0.39}},
{"type":"Feature","geometry":{"type":"Point","coordinates":[-80.84309999999994,35.227100000000064]},"properties":{"id":11,"city":"Charlotte","latitude":35.2271,"longitude":-80.8431,"pop_1960":201564,"pop_1970":241420,"pop_1980":315474,"pop_1990":395934,"pop_2000":540828,"pop_2010":731424,"pop_2020":874579}},
{"type":"Feature","geometry":{"type":"Point","coordinates":[-81.37889999999999,28.538400000000024]},"properties":{"id":12,"city":"Orlando","latitude":28.5384,"longitude":-81.3789,"pop_1960":0.09,"pop_1970":0.10,"pop_1980":0.13,"pop_1990":0.16,"pop_2000":0.19,"pop_2010":0.24,"pop_2020":0.31}},
{"type":"Feature","geometry":{"type":"Point","coordinates":[-98.49459999999999,29.425200000000075]},"properties":{"id":13,"city":"San Antonio","latitude":29.4252,"longitude":-98.4946,"pop_1960":0.59,"pop_1970":0.65,"pop_1980":0.79,"pop_1990":0.94,"pop_2000":1.14,"pop_2010":1.33,"pop_2020":1.43}},
{"type":"Feature","geometry":{"type":"Point","coordinates":[-121.49439999999998,38.58160000000004]},"properties":{"id":14,"city":"Sacramento","latitude":38.5816,"longitude":-121.4944,"pop_1960":0.19,"pop_1970":0.26,"pop_1980":0.28,"pop_1990":0.37,"pop_2000":0.41,"pop_2010":0.47,"pop_2020":0.52}},
{"type":"Feature","geometry":{"type":"Point","coordinates":[-115.13909999999998,36.17160000000007]},"properties":{"id":15,"city":"Las Vegas","latitude":36.1716,"longitude":-115.1391,"pop_1960":0.06,"pop_1970":0.13,"pop_1980":0.17,"pop_1990":0.26,"pop_2000":0.48,"pop_2010":0.58,"pop_2020":0.64}}]}